{"_id":{"$oid":"57d70a1531789a483c3f33da"},"type":"apartment","address":{"city":"Tel Aviv","country":"Israel"},"listingType":"Buy","numOfRooms":3,"price":3200000,"priceCurrency":"ILS","geoLocation":{"type":"Point","coordinates":[32.069163,34.7663166]},"dateCreated":{"$date":"2016-09-12T20:03:33.348Z"},"listingOwner":{"_id":"ObjectId(57dea40f6c8abd3cd4660894)","email":"user@gmail.com"}}
{"_id":{"$oid":"57d70a1531789a483c3f33d8"},"type":"apartment","address":{"street":"Bar Ilan","number":"8","city":"Tel Aviv","country":"Israel"},"numOfRooms":3,"listingType":"Buy","price":2700000,"priceCurrency":"ILS","geoLocation":{"type":"Point","coordinates":[32.069852,34.77715]},"dateCreated":{"$date":"2016-09-12T20:03:33.348Z"},"listingOwner":{"_id":"ObjectId(57dea40f6c8abd3cd4660894)","email":"user@gmail.com"}}
{"_id":{"$oid":"57d70a1531789a483c3f33db"},"type":"apartment","address":{"street":"HeidenfeldStraße","number":"20","city":"Berlin","country":"Germany"},"numOfRooms":3,"listingType":"Buy","price":270000,"priceCurrency":"EUR","geoLocation":{"type":"Point","coordinates":[52.525769,13.449414]},"dateCreated":{"$date":"2016-09-12T20:03:33.348Z"},"listingOwner":{"_id":"ObjectId(57dea40f6c8abd3cd4660894)","email":"user@gmail.com"}}
{"_id":{"$oid":"57d70a1531789a483c3f33dd"},"type":"house","address":{"street":"Elkcam Blvd","number":"3917","city":"St. Petersburg","country":"United States"},"numOfRooms":4,"price":130000,"priceCurrency":"USD","listingType":"Buy","geoLocation":{"type":"Point","coordinates":[27.733402,-82.635073]},"dateCreated":{"$date":"2016-09-12T20:03:33.348Z"},"listingOwner":{"_id":"ObjectId(57dea40f6c8abd3cd4660894)","email":"user@gmail.com"}}
{"_id":{"$oid":"57d70a1531789a483c3f33dc"},"type":"apartment","address":{"street":"Thulestraße","number":"62","city":"Berlin","country":"Germany"},"numOfRooms":3,"listingType":"Buy","price":420000,"priceCurrency":"EUR","geoLocation":{"type":"Point","coordinates":[52.554654,13.425736]},"dateCreated":{"$date":"2016-09-12T20:03:33.348Z"},"listingOwner":{"_id":"ObjectId(57dea40f6c8abd3cd4660894)","email":"user@gmail.com"}}
{"_id":{"$oid":"57dd76c846bb811418c57670"},"geoLocation":{"type":"Point","coordinates":[32.077905,34.779545]},"numOfRooms":2,"type":"apartment","listingType":"Rent","price":5500,"priceCurrency":"ILS","address":{"street":"נצח ישראל","number":9,"city":"Tel Aviv","country":"Israel"},"dateCreated":{"$date":"2016-09-17T17:00:56.683Z"},"listingOwner":{"_id":"ObjectId(57dea40f6c8abd3cd4660894)","email":"user@gmail.com"}}
{"_id":{"$oid":"57ded4e1350f9e4fd4fbdcc4"},"type":"house","address":{"street":"Brodetzky","number":"4","city":"Tel Aviv","country":"Israel"},"listingType":"Rent","facts":{"yearBuilt":"1993"},"features":["Garden","Shelter Room"],"numOfRooms":7,"price":3500,"priceCurrency":"ILS","geoLocation":{"type":"Point","coordinates":[32.104928,34.795387]},"dateCreated":{"$date":"2016-09-18T17:54:41.193Z"},"listingOwner":{"_id":"ObjectId(57dea40f6c8abd3cd4660894)","email":"user@gmail.com"}}
{"_id":{"$oid":"57ded56e350f9e4fd4fbdcc5"},"type":"apartment","address":{"street":"Lamartine","number":"14","city":"Tel Aviv","country":"Israel"},"listingType":"Rent","facts":{"yearBuilt":"1971"},"features":["Air Condition","Balcony","kitchen with appliances","parking","elevator"],"numOfRooms":4,"price":2700,"priceCurrency":"ILS","geoLocation":{"type":"Point","coordinates":[32.047561,34.758975]},"dateCreated":{"$date":"2016-09-18T17:57:02.185Z"},"listingOwner":{"_id":"ObjectId(57dea40f6c8abd3cd4660894)","email":"user@gmail.com"}}
{"_id":{"$oid":"57ded5ad350f9e4fd4fbdcc6"},"type":"house","address":{"street":"Danny Kaye Kaminski","number":"8","city":"Tel Aviv","country":"Israel"},"listingType":"Buy","facts":{"yearBuilt":"1971"},"features":["Air Condition","Balcony","kitchen with appliances","parking","elevator"],"numOfRooms":5,"price":2100000,"priceCurrency":"ILS","geoLocation":{"type":"Point","coordinates":[32.048163,34.753964]},"dateCreated":{"$date":"2016-09-18T17:58:05.932Z"},"listingOwner":{"_id":"ObjectId(57dea40f6c8abd3cd4660894)","email":"user@gmail.com"}}
{"_id":{"$oid":"57ded5fc350f9e4fd4fbdcc7"},"type":"apartment","address":{"street":"Wolfson ","number":"10","city":"Tel Aviv","country":"Israel"},"listingType":"Buy","facts":{"yearBuilt":"1982"},"features":[],"numOfRooms":5,"price":2100000,"priceCurrency":"ILS","geoLocation":{"type":"Point","coordinates":[32.058039,34.770291]},"dateCreated":{"$date":"2016-09-18T17:59:24.606Z"},"listingOwner":{"_id":"ObjectId(57dea40f6c8abd3cd4660894)","email":"user@gmail.com"}}
{"_id":{"$oid":"57ded88e350f9e4fd4fbdcc8"},"type":"house","address":{"street":"Lev Davidovich Landau","number":"24","city":"Rishon Lezion","country":"Israel"},"listingType":"Buy","facts":{"yearBuilt":"2001"},"features":["Garden","Shelter Room","Blacony"],"numOfRooms":7,"price":3700000,"priceCurrency":"ILS","geoLocation":{"type":"Point","coordinates":[31.967411,34.7689]},"dateCreated":{"$date":"2016-09-18T18:10:22.377Z"},"listingOwner":{"_id":"ObjectId(57dea40f6c8abd3cd4660894)","email":"user@gmail.com"}}
